[{"model": "skate_spots.city", "pk": 1, "fields": {"name": "Berlin", "country": "DE"}}, {"model": "skate_spots.spot", "pk": 2, "fields": {"name": "Heidelberger Platz", "address": "Rudolfstädter Straße 12, 10713", "city": 1, "lat": "52.4815000000", "lon": "13.3115300000", "location": null, "category": "S", "private": false, "submitted_by": null}}, {"model": "skate_spots.spot", "pk": 4, "fields": {"name": "Dog Shit Spot", "address": "Helsingforser Platz, 10243 Berlin", "city": 1, "lat": "52.5082300000", "lon": "13.4487700000", "location": null, "category": "S", "private": false, "submitted_by": null}}, {"model": "skate_spots.spot", "pk": 5, "fields": {"name": "E Lok Bowl", "address": "Laskerstraße 6-8, 10245 Berlin", "city": 1, "lat": "52.5011900000", "lon": "13.4659600000", "location": null, "category": "S", "private": true, "submitted_by": null}}, {"model": "skate_spots.spot", "pk": 6, "fields": {"name": "Skatehalle Berlin", "address": "Revaler Straße 99, 10245", "city": 1, "lat": "52.5080900000", "lon": "13.4527700000", "location": null, "category": "S", "private": true, "submitted_by": null}}, {"model": "skate_spots.spot", "pk": 7, "fields": {"name": "Poststadion", "address": "Lehrter Straße 23, 10557 Berlin", "city": 1, "lat": "52.5300800000", "lon": "13.3613800000", "location": null, "category": "S", "private": false, "submitted_by": null}}, {"model": "skate_spots.spot", "pk": 8, "fields": {"name": "Hasenheide", "address": "Columbiadamm 160, 10965", "city": 1, "lat": "52.4807400000", "lon": "13.4163700000", "location": null, "category": "S", "private": false, "submitted_by": null}}, {"model": "skate_spots.spot", "pk": 9, "fields": {"name": "Skatepark Wedding / Märkisches Viertel", "address": "Senftenberger Ring 17, 13439", "city": 1, "lat": "52.5999100000", "lon": "13.3544000000", "location": null, "category": "S", "private": false, "submitted_by": null}}, {"model": "skate_spots.spot", "pk": 10, "fields": {"name": "Vogelfreiheit", "address": "Tempelhofer Feld, 12101", "city": 1, "lat": "52.4681600000", "lon": "13.4116100000", "location": null, "category": "S", "private": false, "submitted_by": null}}, {"model": "skate_spots.spot", "pk": 11, "fields": {"name": "Mellowpark", "address": "An der Wuhlheide 250-256, 12555", "city": 1, "lat": "52.4558600000", "lon": "13.5635900000", "location": null, "category": "S", "private": true, "submitted_by": null}}, {"model": "skate_spots.spot", "pk": 12, "fields": {"name": "Böcklerpark", "address": "Prinzenstraße 1, 10969", "city": 1, "lat": "52.4970700000", "lon": "13.4062900000", "location": null, "category": "S", "private": false, "submitted_by": null}}, {"model": "skate_spots.spot", "pk": 13, "fields": {"name": "Club der Visionäre", "address": "Vor dem Schlesischen Tor, 10997", "city": 1, "lat": "52.4970700000", "lon": "13.4491900000", "location": null, "category": "S", "private": false, "submitted_by": null}}, {"model": "skate_spots.spot", "pk": 14, "fields": {"name": "Gleisdreieck", "address": "Park am Gleisdreieck, 10963", "city": 1, "lat": "52.4951800000", "lon": "13.3733100000", "location": null, "category": "S", "private": false, "submitted_by": null}}, {"model": "skate_spots.spot", "pk": 15, "fields": {"name": "Jugendclub KOCA", "address": "Landsberger Allee 15, 10249", "city": 1, "lat": "52.5259300000", "lon": "13.4365400000", "location": null, "category": "S", "private": true, "submitted_by": null}}, {"model": "skate_spots.spot", "pk": 16, "fields": {"name": "Wartenberg", "address": "Hagenower Ring 49, 13059", "city": 1, "lat": "52.5782200000", "lon": "13.5054300000", "location": null, "category": "S", "private": false, "submitted_by": null}}, {"model": "skate_spots.spot", "pk": 17, "fields": {"name": "Wuhletal", "address": "Wuhletalstraße 70, 12687", "city": 1, "lat": "52.5604200000", "lon": "13.5669200000", "location": null, "category": "S", "private": false, "submitted_by": null}}, {"model": "skate_spots.spot", "pk": 18, "fields": {"name": "Pappelplatz", "address": "Pappelplatz 1, 10115", "city": 1, "lat": "52.5324900000", "lon": "13.3944900000", "location": null, "category": "S", "private": false, "submitted_by": null}}, {"model": "skate_spots.spot", "pk": 19, "fields": {"name": "Cunistraße", "address": "Cunistraße 35, 13127", "city": 1, "lat": "52.6102300000", "lon": "13.4222000000", "location": null, "category": "S", "private": false, "submitted_by": null}}, {"model": "skate_spots.spot", "pk": 20, "fields": {"name": "Maxim", "address": "Charlottenburger Straße 177, 13086", "city": 1, "lat": "52.5499000000", "lon": "13.4537200000", "location": null, "category": "S", "private": true, "submitted_by": null}}, {"model": "skate_spots.spot", "pk": 21, "fields": {"name": "Räcknitzer Steig", "address": "Räcknitzer Steig 10, 13593", "city": 1, "lat": "52.5221100000", "lon": "13.1691200000", "location": null, "category": "S", "private": false, "submitted_by": null}}, {"model": "skate_spots.spot", "pk": 22, "fields": {"name": "Jewe Skate Bowls", "address": "Lippstädter Straße 5, 12207", "city": 1, "lat": "52.4128900000", "lon": "13.3028500000", "location": null, "category": "S", "private": false, "submitted_by": null}}, {"model": "skate_spots.spot", "pk": 23, "fields": {"name": "Skate Park M-Street", "address": "Tom-Sawyer-Weg 5, 14169", "city": 1, "lat": "52.4532800000", "lon": "13.2674900000", "location": null, "category": "S", "private": true, "submitted_by": null}}, {"model": "skate_spots.spot", "pk": 24, "fields": {"name": "Skatepark Lichtenrader", "address": "Finchleystraße 11, 12305", "city": 1, "lat": "52.3907100000", "lon": "13.4040500000", "location": null, "category": "S", "private": false, "submitted_by": null}}, {"model": "skate_spots.spot", "pk": 25, "fields": {"name": "Ringpark", "address": "Ringstraße 23, 12105", "city": 1, "lat": "52.4443700000", "lon": "13.3701000000", "location": null, "category": "S", "private": false, "submitted_by": null}}, {"model": "skate_spots.spot", "pk": 26, "fields": {"name": "Nöldnerplatz", "address": "Nöldnerstraße 33, 10317", "city": 1, "lat": "52.5023500000", "lon": "13.4836900000", "location": null, "category": "S", "private": false, "submitted_by": null}}, {"model": "skate_spots.spot", "pk": 27, "fields": {"name": "Rummelsburg", "address": "Rummelsburger Straße 236, 10315", "city": 1, "lat": "52.5020700000", "lon": "13.5052700000", "location": null, "category": "S", "private": false, "submitted_by": null}}, {"model": "skate_spots.spot", "pk": 28, "fields": {"name": "Warnitzer", "address": "Warnitzer Straße 2, 13057", "city": 1, "lat": "52.5671100000", "lon": "13.5206100000", "location": null, "category": "S", "private": false, "submitted_by": null}}, {"model": "skate_spots.spot", "pk": 29, "fields": {"name": "An der Wuhle", "address": "Wuhletal 4, 12683", "city": 1, "lat": "52.5008600000", "lon": "1357391.0000000000", "location": null, "category": "S", "private": false, "submitted_by": null}}, {"model": "skate_spots.spot", "pk": 30, "fields": {"name": "Kyritzer Straße", "address": "Kyritzer Straße 32", "city": 1, "lat": "52.5425500000", "lon": "13.5834500000", "location": null, "category": "S", "private": false, "submitted_by": null}}, {"model": "skate_spots.spot", "pk": 31, "fields": {"name": "Miniramp Mittenwalder Straße", "address": "Zossener Straße 153, 12629", "city": 1, "lat": "52.5445900000", "lon": "13.5972000000", "location": null, "category": "S", "private": false, "submitted_by": null}}, {"model": "skate_spots.spot", "pk": 32, "fields": {"name": "Gipsstraße", "address": "Joachimstraße 19, 10119", "city": 1, "lat": "52.5274300000", "lon": "13.4003000000", "location": null, "category": "S", "private": false, "submitted_by": null}}, {"model": "skate_spots.spot", "pk": 33, "fields": {"name": "Bornsdorfer", "address": "Bornsdorfer Straße 36, 12053", "city": 1, "lat": "52.4751400000", "lon": "13.4372900000", "location": null, "category": "S", "private": false, "submitted_by": null}}, {"model": "skate_spots.spot", "pk": 34, "fields": {"name": "Ringallee", "address": "Zur Ringallee 21, 13088", "city": 1, "lat": "52.5647200000", "lon": "13.4536600000", "location": null, "category": "S", "private": false, "submitted_by": null}}, {"model": "skate_spots.spot", "pk": 35, "fields": {"name": "T Park", "address": "Prenzlauer Berg 8, 10405", "city": 1, "lat": "52.5287400000", "lon": "13.4188400000", "location": null, "category": "S", "private": false, "submitted_by": null}}, {"model": "skate_spots.spot", "pk": 36, "fields": {"name": "Skatepark am Kiesteich", "address": "Falkenseer Chaussee 204A, 13589 Berlin", "city": 1, "lat": "52.5493100000", "lon": "13.1658800000", "location": null, "category": "S", "private": false, "submitted_by": null}}, {"model": "skate_spots.spot", "pk": 37, "fields": {"name": "Bullengraben / Staaken", "address": "Magistratsweg 95, 13591", "city": 1, "lat": "52.5296900000", "lon": "13.1576000000", "location": null, "category": "S", "private": false, "submitted_by": null}}, {"model": "skate_spots.spot", "pk": 38, "fields": {"name": "Amtsgericht Spandau", "address": "Altstädter Ring 7, 13597", "city": 1, "lat": "52.5372500000", "lon": "13.1981430000", "location": null, "category": "S", "private": false, "submitted_by": null}}, {"model": "skate_spots.spot", "pk": 39, "fields": {"name": "Miniramp Räcknitzer Steig", "address": "Räcknitzer Steig 11, 13593", "city": 1, "lat": "52.5213600000", "lon": "13.1703300000", "location": null, "category": "S", "private": false, "submitted_by": null}}, {"model": "skate_spots.spot", "pk": 40, "fields": {"name": "Bülowstraße", "address": "Dennewitzstraße 27, 10783", "city": 1, "lat": "52.4969200000", "lon": "13.3686900000", "location": null, "category": "S", "private": false, "submitted_by": null}}, {"model": "skate_spots.spot", "pk": 41, "fields": {"name": "Kleistpark", "address": "Potsdamer Straße 184, 10783", "city": 1, "lat": "52.4933500000", "lon": "13.3591200000", "location": null, "category": "S", "private": false, "submitted_by": null}}, {"model": "skate_spots.spot", "pk": 42, "fields": {"name": "Flugfeld Johannisthal", "address": "Hermann-Dorner-Allee 21, 12489", "city": 1, "lat": "52.4336400000", "lon": "13.5187800000", "location": null, "category": "S", "private": false, "submitted_by": null}}, {"model": "skate_spots.spot", "pk": 43, "fields": {"name": "Hasselwerderstraße Mini", "address": "Hasselwerderstraße 39, 12439", "city": 1, "lat": "52.4548000000", "lon": "13.5132300000", "location": null, "category": "S", "private": false, "submitted_by": null}}, {"model": "skate_spots.spot", "pk": 44, "fields": {"name": "Maybachufer / MBU / Anthony Huber Skatepark", "address": "Weichselstraße 33, 12045 Berlin", "city": 1, "lat": "52.4890200000", "lon": "13.4389800000", "location": null, "category": "S", "private": false, "submitted_by": null}}, {"model": "skate_spots.spot", "pk": 45, "fields": {"name": "Miniramp Modersohnstraße", "address": "Rudolfstraße 15B, 10245", "city": 1, "lat": "52.5041100000", "lon": "13.4549600000", "location": null, "category": "S", "private": true, "submitted_by": null}}, {"model": "skate_spots.spot", "pk": 46, "fields": {"name": "Darßer str", "address": "Darßer Str. 1, 13051", "city": 1, "lat": "52.5651200000", "lon": "13.4942000000", "location": null, "category": "S", "private": false, "submitted_by": null}}, {"model": "skate_spots.spot", "pk": 47, "fields": {"name": "Rummelsburg", "address": "Hauptstraße 4, 10317", "city": 1, "lat": "52.5008900000", "lon": "13.4751900000", "location": null, "category": "S", "private": false, "submitted_by": null}}, {"model": "skate_spots.spot", "pk": 48, "fields": {"name": "S BHF Lichtenberg", "address": "Weitlingstraße 5, 10317", "city": 1, "lat": "52.5103200000", "lon": "13.4998000000", "location": null, "category": "S", "private": false, "submitted_by": null}}, {"model": "skate_spots.spot", "pk": 49, "fields": {"name": "Schulze-Boysen-Straße", "address": "Schulze-Boysen-Straße 38, 10365", "city": 1, "lat": "52.5083800000", "lon": "13.4778400000", "location": null, "category": "S", "private": false, "submitted_by": null}}, {"model": "skate_spots.spot", "pk": 50, "fields": {"name": "Alte Hellersdorfer", "address": "Alte Hellersdorfer Straße 1, 12629", "city": 1, "lat": "52.5334600000", "lon": "13.5910100000", "location": null, "category": "S", "private": false, "submitted_by": null}}, {"model": "skate_spots.spot", "pk": 51, "fields": {"name": "Bürgerpark Marzahn", "address": "Ludwig-Renn-Straße 34, 12679", "city": 1, "lat": "52.5516400000", "lon": "13.5618300000", "location": null, "category": "S", "private": false, "submitted_by": null}}, {"model": "skate_spots.spot", "pk": 52, "fields": {"name": "Liberty Park", "address": "Senftenberger Straße 10, 12627", "city": 1, "lat": "52.5385600000", "lon": "13.5978500000", "location": null, "category": "S", "private": false, "submitted_by": null}}, {"model": "skate_spots.spot", "pk": 53, "fields": {"name": "Teterower Ring", "address": "Teterower Ring 70, 12619", "city": 1, "lat": "52.5209000000", "lon": "13.5819000000", "location": null, "category": "S", "private": false, "submitted_by": null}}, {"model": "skate_spots.spot", "pk": 54, "fields": {"name": "Wuhletal", "address": "Wuhletalstraße 70, 12687", "city": 1, "lat": "52.5604200000", "lon": "13.5669200000", "location": null, "category": "S", "private": false, "submitted_by": null}}, {"model": "skate_spots.spot", "pk": 55, "fields": {"name": "Grüntaler Straße", "address": "Grüntaler Straße 24, 13357", "city": 1, "lat": "52.5541400000", "lon": "13.3897100000", "location": null, "category": "S", "private": false, "submitted_by": null}}, {"model": "skate_spots.spot", "pk": 56, "fields": {"name": "Leonhard-Frank-Strasse", "address": "Leonhard-Frank-Strasse 4, 13156", "city": 1, "lat": "52.5700100000", "lon": "13.3897100000", "location": null, "category": "S", "private": false, "submitted_by": null}}, {"model": "skate_spots.spot", "pk": 57, "fields": {"name": "Mahlerstraße", "address": "Mahlerstraße 27, 13088", "city": 1, "lat": "52.5463600000", "lon": "13.4538600000", "location": null, "category": "S", "private": false, "submitted_by": null}}, {"model": "skate_spots.spot", "pk": 58, "fields": {"name": "Fasanerie", "address": "Fasanerie 4, 13469", "city": 1, "lat": "52.6072700000", "lon": "13.3645800000", "location": null, "category": "S", "private": false, "submitted_by": null}}, {"model": "skate_spots.spot", "pk": 59, "fields": {"name": "Marienfelde", "address": "Straße 478, 12277", "city": 1, "lat": "52.4039100000", "lon": "13.3665400000", "location": null, "category": "S", "private": false, "submitted_by": null}}, {"model": "skate_spots.spot", "pk": 60, "fields": {"name": "Grazer Platz", "address": "Grazer Platz 21, 12157", "city": 1, "lat": "52.4678500000", "lon": "13.3485900000", "location": null, "category": "S", "private": false, "submitted_by": null}}, {"model": "skate_spots.spot", "pk": 61, "fields": {"name": "Allende-Viertel", "address": "Pablo-Neruda-Straße 5, 12559", "city": 1, "lat": "52.4426000000", "lon": "13.5878900000", "location": null, "category": "S", "private": false, "submitted_by": null}}, {"model": "skate_spots.spot", "pk": 62, "fields": {"name": "Am Falkenberg", "address": "Lindenblütenstraße 26, 12526", "city": 1, "lat": "52.4070600000", "lon": "13.5676100000", "location": null, "category": "S", "private": false, "submitted_by": null}}, {"model": "skate_spots.spot", "pk": 63, "fields": {"name": "Bellevuepark", "address": "Friedrichshagener Straße 38, 12555", "city": 1, "lat": "52.4538300000", "lon": "13.5827200000", "location": null, "category": "S", "private": false, "submitted_by": null}}, {"model": "skate_spots.spot", "pk": 64, "fields": {"name": "Engelhardstraße", "address": "Engelhardstraße 10, 12487", "city": 1, "lat": "52.4477800000", "lon": "13.5092600000", "location": null, "category": "S", "private": false, "submitted_by": null}}, {"model": "skate_spots.spot", "pk": 65, "fields": {"name": "Miniramp im FEZ", "address": "Straße zum FEZ 2, 1245", "city": 1, "lat": "52.4609200000", "lon": "13.5481700000", "location": null, "category": "S", "private": false, "submitted_by": null}}, {"model": "skate_spots.spot", "pk": 66, "fields": {"name": "Fennpfuhl", "address": "Weißenseer Weg 23, 10367", "city": 1, "lat": "52.5297700000", "lon": "13.4771400000", "location": null, "category": "S", "private": false, "submitted_by": null}}, {"model": "skate_spots.spot", "pk": 67, "fields": {"name": "Klausdorfer Straße", "address": "Klausdorfer Straße 12, 12629", "city": 1, "lat": "52.5474200000", "lon": "13.5939000000", "location": null, "category": "S", "private": false, "submitted_by": null}}, {"model": "skate_spots.spot", "pk": 68, "fields": {"name": "Tempelhofer Damm", "address": "Tempelhofer Damm 104, 12099", "city": 1, "lat": "52.4713600000", "lon": "13.3859400000", "location": null, "category": "S", "private": false, "submitted_by": null}}, {"model": "skate_spots.spot", "pk": 69, "fields": {"name": "Rudower Straße", "address": "Rudower Straße 132, 12557", "city": 1, "lat": "52.4398700000", "lon": "13.5610700000", "location": null, "category": "S", "private": false, "submitted_by": null}}, {"model": "skate_spots.spot", "pk": 70, "fields": {"name": "Skatepark Berlin-Buch", "address": "Walter-Friedrich-Straße 32, 13125", "city": 1, "lat": "52.6309800000", "lon": "13.4934800000", "location": null, "category": "S", "private": false, "submitted_by": null}}, {"model": "skate_spots.spot", "pk": 71, "fields": {"name": "Skatepark im Volkspark Friedrichshain (Neu)", "address": "Am Friedrichshain 15, 10407", "city": 1, "lat": "52.5284600000", "lon": "13.4320900000", "location": null, "category": "S", "private": false, "submitted_by": null}}, {"model": "skate_spots.spot", "pk": 72, "fields": {"name": "Stahnsdorf Bowl", "address": "Ruhlsdorfer Str. 86, 14532", "city": 1, "lat": "52.3832000000", "lon": "13.2442000000", "location": null, "category": "S", "private": false, "submitted_by": null}}, {"model": "skate_spots.spot", "pk": 73, "fields": {"name": "Forckenbeckplatz Mini ramp", "address": "Eldenaer Str. 43, 10247", "city": 1, "lat": "52.5196000000", "lon": "13.4619000000", "location": null, "category": "S", "private": false, "submitted_by": null}}, {"model": "skate_spots.spot", "pk": 74, "fields": {"name": "Skatepark Belsen", "address": "Saalestraße, 12055", "city": 1, "lat": "52.4706700000", "lon": "13.4497200000", "location": null, "category": "S", "private": false, "submitted_by": null}}, {"model": "skate_spots.spot", "pk": 75, "fields": {"name": "Skaterpark Velten", "address": "16727 Velten", "city": 1, "lat": "52.6855500000", "lon": "13.1828000000", "location": null, "category": "S", "private": false, "submitted_by": null}}, {"model": "skate_spots.spot", "pk": 76, "fields": {"name": "Greifswalder Str.", "address": "Lilli-Henoch-Straße 21, 10405 Berlin", "city": 1, "lat": "52.5411130000", "lon": "13.4349120000", "location": null, "category": "S", "private": true, "submitted_by": null}}, {"model": "skate_spots.spot", "pk": 77, "fields": {"name": "THF Skate Circle", "address": "12049", "city": 1, "lat": "52.4956837000", "lon": "13.4136043000", "location": null, "category": "S", "private": false, "submitted_by": null}}, {"model": "skate_spots.spot", "pk": 78, "fields": {"name": "Messe Nord / ICC", "address": "14057 Berlin", "city": 1, "lat": "52.5067080000", "lon": "13.2807319000", "location": null, "category": "S", "private": false, "submitted_by": null}}, {"model": "skate_spots.spot", "pk": 79, "fields": {"name": "Kulturforum", "address": "Matthäikirchplatz, 10785 Berlin", "city": 1, "lat": "52.5089986000", "lon": "13.3660363000", "location": null, "category": "S", "private": false, "submitted_by": null}}]